{
"type": "FeatureCollection",
"name": "monitoring_points",
"crs": { "type": "name", "properties": { "name": "urn:ogc:def:crs:OGC:1.3:CRS84" } },
"features": [
{ "type": "Feature", "properties": { "id": 6, "name": null }, "geometry": { "type": "Point", "coordinates": [ 38.75468, 56.728659 ] } },
{ "type": "Feature", "properties": { "id": 1, "name": null }, "geometry": { "type": "Point", "coordinates": [ 38.784363, 56.724167 ] } },
{ "type": "Feature", "properties": { "id": 2, "name": null }, "geometry": { "type": "Point", "coordinates": [ 38.768971, 56.726564 ] } },
{ "type": "Feature", "properties": { "id": 4, "name": null }, "geometry": { "type": "Point", "coordinates": [ 38.760257, 56.727384 ] } },
{ "type": "Feature", "properties": { "id": null, "name": null }, "geometry": { "type": "Point", "coordinates": [ 38.769333044716227, 56.726415560002039 ] } },
{ "type": "Feature", "properties": { "id": null, "name": "выпуск Марюха" }, "geometry": { "type": "Point", "coordinates": [ 38.82451627379389, 56.732553179097103 ] } },
{ "type": "Feature", "properties": { "id": null, "name": null }, "geometry": { "type": "Point", "coordinates": [ 38.818967841547682, 56.735862880546613 ] } },
{ "type": "Feature", "properties": { "id": null, "name": null }, "geometry": { "type": "Point", "coordinates": [ 38.812625617508125, 56.738922093290121 ] } },
{ "type": "Feature", "properties": { "id": null, "name": "Живой мост" }, "geometry": { "type": "Point", "coordinates": [ 38.833119405393887, 56.735147376724711 ] } },
{ "type": "Feature", "properties": { "id": null, "name": "выпуск ливневки с вост стор" }, "geometry": { "type": "Point", "coordinates": [ 38.860136678273975, 56.737176116543772 ] } },
{ "type": "Feature", "properties": { "id": null, "name": "Ручей на Пролетарской" }, "geometry": { "type": "Point", "coordinates": [ 38.861755919245532, 56.737717343163439 ] } },
{ "type": "Feature", "properties": { "id": null, "name": "черноречка" }, "geometry": { "type": "Point", "coordinates": [ 38.861447872453489, 56.733674643282967 ] } },
{ "type": "Feature", "properties": { "id": null, "name": "Река Трубеж (с. Красное)" }, "geometry": { "type": "Point", "coordinates": [ 38.908625393589375, 56.702352506475712 ] } },
{ "type": "Feature", "properties": { "id": null, "name": "Ручей Мурмиш" }, "geometry": { "type": "Point", "coordinates": [ 38.926160514995225, 56.728837779525328 ] } },
{ "type": "Feature", "properties": { "id": null, "name": "Река Ветлянка (дамба)" }, "geometry": { "type": "Point", "coordinates": [ 38.904592566346814, 56.743760468833173 ] } },
{ "type": "Feature", "properties": { "id": null, "name": "Выпуск ливневки с 4, 5, 6 микро" }, "geometry": { "type": "Point", "coordinates": [ 38.906087250569577, 56.762682662494072 ] } },
{ "type": "Feature", "properties": { "id": null, "name": "Ручей Галев поток" }, "geometry": { "type": "Point", "coordinates": [ 38.868734245794997, 56.759746477752294 ] } },
{ "type": "Feature", "properties": { "id": null, "name": "Ручей Галев поток вода" }, "geometry": { "type": "Point", "coordinates": [ 38.847970564687806, 56.75470175551817 ] } },
{ "type": "Feature", "properties": { "id": null, "name": "Река Каменка" }, "geometry": { "type": "Point", "coordinates": [ 38.848297598671138, 56.754901457051048 ] } },
{ "type": "Feature", "properties": { "id": null, "name": "Родник у водозабора" }, "geometry": { "type": "Point", "coordinates": [ 38.844967356573541, 56.764453937939969 ] } },
{ "type": "Feature", "properties": { "id": null, "name": "Никитский родник" }, "geometry": { "type": "Point", "coordinates": [ 38.855395207497544, 56.770212739191919 ] } },
{ "type": "Feature", "properties": { "id": null, "name": "Река Большая Слуда" }, "geometry": { "type": "Point", "coordinates": [ 38.842240994059054, 56.7692527785265 ] } },
{ "type": "Feature", "properties": { "id": null, "name": "Река Малая Слуда" }, "geometry": { "type": "Point", "coordinates": [ 38.838489817131446, 56.772707457462538 ] } },
{ "type": "Feature", "properties": { "id": null, "name": "Ручей Рябцовка" }, "geometry": { "type": "Point", "coordinates": [ 38.826733593022645, 56.784904304174333 ] } },
{ "type": "Feature", "properties": { "id": null, "name": "Родник у деревни Криушкино" }, "geometry": { "type": "Point", "coordinates": [ 38.810249137487091, 56.795027227561263 ] } },
{ "type": "Feature", "properties": { "id": null, "name": "Река Кухмарь" }, "geometry": { "type": "Point", "coordinates": [ 38.789291701018449, 56.807901591038508 ] } },
{ "type": "Feature", "properties": { "id": null, "name": "Ручей Валовая канава (Дедовик)" }, "geometry": { "type": "Point", "coordinates": [ 38.742305756031797, 56.812413034769897 ] } },
{ "type": "Feature", "properties": { "id": null, "name": "Варварин родник" }, "geometry": { "type": "Point", "coordinates": [ 38.728377240573288, 56.832246376194746 ] } },
{ "type": "Feature", "properties": { "id": null, "name": "Векса Урев" }, "geometry": { "type": "Point", "coordinates": [ 38.723017557340484, 56.798465479075048 ] } },
{ "type": "Feature", "properties": { "id": null, "name": "Река Векса" }, "geometry": { "type": "Point", "coordinates": [ 38.712797761881944, 56.799284189871315 ] } },
{ "type": "Feature", "properties": { "id": null, "name": "Река Векса" }, "geometry": { "type": "Point", "coordinates": [ 38.672525201985103, 56.822107103045646 ] } },
{ "type": "Feature", "properties": { "id": null, "name": "Ручей у лагеря Чайка" }, "geometry": { "type": "Point", "coordinates": [ 38.716765783023682, 56.766455319722922 ] } },
{ "type": "Feature", "properties": { "id": null, "name": "Река Сосенка" }, "geometry": { "type": "Point", "coordinates": [ 38.722218243729159, 56.754778256480378 ] } },
{ "type": "Feature", "properties": { "id": null, "name": "Ручей Куротень" }, "geometry": { "type": "Point", "coordinates": [ 38.728060548238403, 56.7476553234359 ] } },
{ "type": "Feature", "properties": { "id": null, "name": "Ручей Павловка" }, "geometry": { "type": "Point", "coordinates": [ 38.745087890759521, 56.738821558483728 ] } }
]
}
